{
  "results" : [
    {
      "location" :
      {
        "lat" : 52.0885482005110774,
        "lng" : 23.6890849471092224
      },
      "type" : 1,
      "time" : "12:54",
      "name" : "К. Маркса",
      "transport_name" : "1 Областная больница-Орджоникидзе",
      "start_transit_end" : 1
    },
    {
      "location" :
      {
        "lat" : 52.0925742399423584,
        "lng" : 23.6882910132408142
      },
      "type" : 1,
      "time" : "12:56",
      "name" : "Гимназия №1",
      "transport_name" : "1 Областная больница-Орджоникидзе",
      "start_transit_end" : 2
    },
    {
      "location" :
      {
        "lat" : 52.0969838999999979,
        "lng" : 23.6837474000000157
      },
      "type" : 1,
      "time" : "12:58",
      "name" : "Промстройбанк",
      "transport_name" : "1 Областная больница-Орджоникидзе",
      "start_transit_end" : 2
    },
    {
      "location" :
      {
        "lat" : 52.0984914999999873,
        "lng" : 23.6848067999999330
      },
      "type" : 1,
      "time" : "13:00",
      "name" : "Орджоникидзе",
      "transport_name" : "1 Областная больница-Орджоникидзе",
      "start_transit_end" : 5
    },
    {
      "location" :
      {
        "lat" : 52.0984914999999873,
        "lng" : 23.6848067999999330
      },
      "type" : 1,
      "time" : "13:06",
      "name" : "Орджоникидзе",
      "transport_name" : "1 Орджоникидзе-Областная больница",
      "start_transit_end" : 4
    },
    {
      "location" :
      {
        "lat" : 52.0940128000000016,
        "lng" : 23.6893827000000101
      },
      "type" : 1,
      "time" : "13:08",
      "name" : "Комсомольская",
      "transport_name" : "1 Орджоникидзе-Областная больница",
      "start_transit_end" : 2
    },
    {
      "location" :
      {
        "lat" : 52.0926451000000128,
        "lng" : 23.6884707000000390
      },
      "type" : 1,
      "time" : "13:10",
      "name" : "Маяковского",
      "transport_name" : "1 Орджоникидзе-Областная больница",
      "start_transit_end" : 2
    },
    {
      "location" :
      {
        "lat" : 52.0885877540366238,
        "lng" : 23.6928856372833252
      },
      "type" : 1,
      "time" : "13:12",
      "name" : "Спортшкола",
      "transport_name" : "1 Орджоникидзе-Областная больница",
      "start_transit_end" : 2
    },
    {
      "location" :
      {
        "lat" : 52.0865111000000027,
        "lng" : 23.6968981999999642
      },
      "type" : 1,
      "time" : "13:14",
      "name" : "ЦУМ",
      "transport_name" : "1 Орджоникидзе-Областная больница",
      "start_transit_end" : 2
    },
    {
      "location" :
      {
        "lat" : 52.0877801999999974,
        "lng" : 23.7040489999999409
      },
      "type" : 1,
      "time" : "13:16",
      "name" : "Проспект Машерова",
      "transport_name" : "1 Орджоникидзе-Областная больница",
      "start_transit_end" : 2
    },
    {
      "location" :
      {
        "lat" : 52.0888119000000032,
        "lng" : 23.7076217000000042
      },
      "type" : 1,
      "time" : "13:18",
      "name" : "МОПРа",
      "transport_name" : "1 Орджоникидзе-Областная больница",
      "start_transit_end" : 2
    },
    {
      "location" :
      {
        "lat" : 52.0915870999999910,
        "lng" : 23.7215799000000516
      },
      "type" : 1,
      "time" : "13:20",
      "name" : "Зеленая",
      "transport_name" : "1 Орджоникидзе-Областная больница",
      "start_transit_end" : 2
    },
    {
      "location" :
      {
        "lat" : 52.0929450000000003,
        "lng" : 23.7283175999999685
      },
      "type" : 1,
      "time" : "13:22",
      "name" : "ЦМТ",
      "transport_name" : "1 Орджоникидзе-Областная больница",
      "start_transit_end" : 2
    },
    {
      "location" :
      {
        "lat" : 52.0944906999999873,
        "lng" : 23.7363695999999891
      },
      "type" : 1,
      "time" : "13:24",
      "name" : "Завод",
      "transport_name" : "1 Орджоникидзе-Областная больница",
      "start_transit_end" : 2
    },
    {
      "location" :
      {
        "lat" : 52.0964383999999967,
        "lng" : 23.7463420999999926
      },
      "type" : 1,
      "time" : "13:26",
      "name" : "Богданчука",
      "transport_name" : "1 Орджоникидзе-Областная больница",
      "start_transit_end" : 2
    },
    {
      "location" :
      {
        "lat" : 52.0987354000000025,
        "lng" : 23.7578594999999950
      },
      "type" : 1,
      "time" : "13:28",
      "name" : "Технический университет",
      "transport_name" : "1 Орджоникидзе-Областная больница",
      "start_transit_end" : 2
    },
    {
      "location" :
      {
        "lat" : 52.1011442000000073,
        "lng" : 23.7702245000000403
      },
      "type" : 1,
      "time" : "13:30",
      "name" : "Парк Воинов-интернац-ов",
      "transport_name" : "1 Орджоникидзе-Областная больница",
      "start_transit_end" : 5
    },
    {
      "location" :
      {
        "lat" : 52.1011442000000073,
        "lng" : 23.7702245000000403
      },
      "type" : 0,
      "time" : "13:47",
      "name" : "Парк Воинов-интернац-ов",
      "transport_name" : "39 Калиновая-ЦГБ",
      "start_transit_end" : 4
    },
    {
      "location" :
      {
        "lat" : 52.1030224000000075,
        "lng" : 23.7798159999999825
      },
      "type" : 0,
      "time" : "13:49",
      "name" : "Восточный микрорайон",
      "transport_name" : "39 Калиновая-ЦГБ",
      "start_transit_end" : 2
    },
    {
      "location" :
      {
        "lat" : 52.1000660999999994,
        "lng" : 23.7874659999999949
      },
      "type" : 0,
      "time" : "13:51",
      "name" : "Стафеева",
      "transport_name" : "39 Калиновая-ЦГБ",
      "start_transit_end" : 2
    },
    {
      "location" :
      {
        "lat" : 52.0985245000000035,
        "lng" : 23.7852474999999686
      },
      "type" : 0,
      "time" : "13:53",
      "name" : "ЦГБ",
      "transport_name" : "39 Калиновая-ЦГБ",
      "start_transit_end" : 3
    }
  ]
}
